{
"type": "FeatureCollection",
"crs": { "type": "name", "properties": { "name": "urn:ogc:def:crs:OGC:1.3:CRS84" } },
                                                                                
"features": [
{ "type": "Feature", "properties": 
	{ "title": "剑川路莲花南路站", 
	"marker-symbol": "bus",
    "marker-color": "#68FA8F",
		"公交线": 
		{
			"江川3路":{"本站末班车":"23:01","本站首班车":"06:41"},
			"上奉专线":{"本站末班车":"19:38","本站首班车":"05:23"}
		}
	}, "geometry": { "type": "Point", "coordinates": [ 121.4420649938381, 31.037176720550342 ] } 
},
	
{ "type": "Feature", "properties": 
	{ "title": "莲花南路剑川路站（东）", 
	"marker-symbol": "bus",
    "marker-color": "#68FA8F",
		"公交线": 
		{
			"江川3路":{"本站末班车":"23:00","本站首班车":"06:40"},
			"180路": {"本站末班车":"22:46","本站首班车":"05:31"}
		}
	}, "geometry": { "type": "Point", "coordinates": [ 121.44282279054346, 31.034011804898569 ] } 
},

{ "type": "Feature", "properties": 
	{ "title": "莲花南路剑川路站（西）", 
	"marker-symbol": "bus",
    "marker-color": "#68FA8F",
		"公交线": 
		{
			"180路":{"本站末班车":"23:41","本站首班车":"06:11"}
		}
	}, "geometry": { "type": "Point", "coordinates": [ 121.4435112463738, 31.03199596660393 ] } 
},

{ "type": "Feature", "properties": 
	{ "title": "莲花南路东川路站（东）", 
	"marker-symbol": "bus",
    "marker-color": "#68FA8F",
		"公交线": 
		{
			"江川3路":{"本站末班车":"22:59","本站首班车":"06:39"},
			"180路": {"本站末班车":"22:45","本站首班车":"05:30"}
		}
	}, "geometry": { "type": "Point", "coordinates": [ 121.44439286607023, 31.030311973925368 ] } 
},

{ "type": "Feature", "properties": 
	{ "title": "莲花南路东川路（西）", 
	"marker-symbol": "bus",
    "marker-color": "#68FA8F",
		"公交线": 
		{
			"180路": {"本站末班车":"23:42","本站首班车":"06:12"}
		}
	}, "geometry": { "type": "Point", "coordinates": [ 121.44477919380238, 31.029053932336087 ] } 
},

{ "type": "Feature", "properties": 
	{ "title": "东川路莲花南路站（北）", 
	"marker-symbol": "bus",
    "marker-color": "#68FA8F",
		"公交线": 
		{
			"闵行11路":{"本站末班车":"22:33","本站首班车":"06:03"},
			"虹桥枢纽4路": {"本站末班车":"22:34","本站首班车":"06:09"}, 
			"958路": {"本站末班车":"19:54","本站首班车":"07:24"}, 
			"江川3路": {"本站末班车":"21:03","本站首班车":"06:33"}
		}
	}, "geometry": { "type": "Point", "coordinates": [ 121.44588864780239, 31.025745382014673 ] } 
},

{ "type": "Feature", "properties": 
	{ "title": "东川路莲花南路站（南）", 
	"marker-symbol": "bus",
    "marker-color": "#68FA8F",
		"公交线": 
		{
			"闵行11路":{"本站末班车":"21:17","本站首班车":"06:37"},
			"虹桥枢纽4路": {"本站末班车":"23:40","本站首班车":"07:11"}, 
			"958路": {"本站末班车":"19:10","本站首班车":"06:40"}, 
			"江川3路": {"本站末班车":"22:58","本站首班车":"06:38"}
		}
	}, "geometry": { "type": "Point", "coordinates": [ 121.44599761203452, 31.025477924353961 ] } 
},

{ "type": "Feature", "properties": 
	{ "title": "东川路虹梅南路站（北）", 
	"marker-symbol": "bus",
    "marker-color": "#68FA8F",
		"公交线": 
		{
			"江川3路":{"本站末班车":"21:02","本站首班车":"06:32"},
			"闵行11路": {"本站末班车":"10:30","本站首班车":"06:00"}
		}
	}, "geometry": { "type": "Point", "coordinates": [ 121.45220857326666, 31.027439280532523 ] } 
},

{ "type": "Feature", "properties": 
	{ "title": "东川路虹梅南路站（南）", 
	"marker-symbol": "bus",
    "marker-color": "#68FA8F",
		"公交线": 
		{
			"闵行11路": {"本站末班车":"21:20","本站首班车":"06:40"}
		}
	}, "geometry": { "type": "Point", "coordinates": [ 121.45322887471309, 31.027409563014668 ] } 
},

{ "type": "Feature", "properties": 
	{ "title": "东海学院站（东）", 
	"marker-symbol": "bus",
    "marker-color": "#68FA8F",
		"公交线": 
		{
			"闵行11路": {"本站末班车":"21:21","本站首班车":"06:41"},
			"958路": {"本站末班车":"19:12","本站首班车":"06:42"}
		}
	}, "geometry": { "type": "Point", "coordinates": [ 121.45525957176667, 31.03212474251464 ] } 
},

{ "type": "Feature", "properties": 
	{ "title": "东海学院站（西）", 
	"marker-symbol": "bus",
    "marker-color": "#68FA8F",
		"公交线": 
		{
			"闵行11路": {"本站末班车":"22:29","本站首班车":"05:59"},
			"958路": {"本站末班车":"19:51","本站首班车":"07:21"},
			"江川3路": {"本站末班车":"22:40","本站首班车":"06:30"}
		}
	}, "geometry": { "type": "Point", "coordinates": [ 121.45416992944526, 31.03301626805035 ] } 
},

{ "type": "Feature", "properties": 
	{ "title": "东海学院站（临时站）",
	"marker-symbol": "bus",
    "marker-color": "#68FA8F",
	
		"公交线": 
		{
			"闵行11路": {"本站末班车":"21:22","本站首班车":"06:42"},
			"958路": {"本站末班车":"19:13","本站首班车":"06:43"},
			"729路": {"本站末班车":"22:31","本站首班车":"06:01"}
		}
	}, "geometry": { "type": "Point", "coordinates": [ 121.45431851703454, 31.034264403800343 ] } 
},

{ "type": "Feature", "properties": 
	{ "title": "剑川路虹梅南路站（南）", 
	"marker-symbol": "bus",
    "marker-color": "#68FA8F",
		"公交线": 
		{
			"闵吴线": {"本站末班车":"19:06","本站首班车":"05:22"},
			"上奉专线": {"本站末班车":"19:40","本站首班车":"05:25"},
			"闵行11路": {"本站末班车":"21:24","本站首班车":"06:44"},
			"729路": {"本站末班车":"22:33","本站首班车":"06:03"},
			"958路": {"本站末班车":"19:15","本站首班车":"06:45"},
			"闵行10路区间": {"本站末班车":"7:30,7:45","本站首班车":"6:55,7:15"}
		}
	}, "geometry": { "type": "Point", "coordinates": [ 121.45199064480242, 31.040326777443173 ] } 
},

{ "type": "Feature", "properties": 
	{ "title": "虹梅南路剑川路站（北）", 
	"marker-symbol": "bus",
    "marker-color": "#68FA8F",
		"公交线": 
		{
			"闵行11路": {"本站末班车":"22:26","本站首班车":"05:56"},
			"958路": {"本站末班车":"19:48","本站首班车":"07:18"},
			"729路": {"本站末班车":"23:42","本站首班车":"05:42"}
		}	
	}, "geometry": { "type": "Point", "coordinates": [ 121.45172318714171, 31.040623952621743 ] } 
},

{ "type": "Feature", "properties": 
	{ "title": "虹梅南路剑川路站（南）", 
	"marker-symbol": "bus",
    "marker-color": "#68FA8F",
		"公交线": 
		{
			"江川3路": {"本站末班车":"23:02","本站首班车":"06:42"}
		}
	}, "geometry": { "type": "Point", "coordinates": [ 121.45060382730242, 31.039885967594955 ] } 
},

{ "type": "Feature", "properties": 
	{ "title": "剑川路虹梅南路站（北）", 
	"marker-symbol": "bus",
    "marker-color": "#68FA8F",
		"公交线": 
		{
			"闵吴线": {"本站末班车":"19:19","本站首班车":"05:41"},
			"上奉专线": {"本站末班车":"21:35","本站首班车":"06:35"}
		}
	}, "geometry": { "type": "Point", "coordinates": [ 121.45049486307028, 31.04013856649674 ] } 
}

]
}
